{"type":"FeatureCollection","features":[{"type":"Feature","id":0,"geometry":{"type":"Point","coordinates":[-71.665141985409761,41.37148839146866]},"properties":{"FID":0,"Id":0,"name":"Ninigret Park","address":"5 Park Ln","City":"Charlestown","Field":0}},{"type":"Feature","id":1,"geometry":{"type":"Point","coordinates":[-71.298873490084262,41.672488068255802]},"properties":{"FID":1,"Id":0,"name":"Colt State Park","address":" ","City":"Bristol","Field":0}},{"type":"Feature","id":2,"geometry":{"type":"Point","coordinates":[-71.443927305695766,41.566731603475795]},"properties":{"FID":2,"Id":0,"name":"North Kingstown Town Beach","address":"Beach St","City":" North Kingstown","Field":0}},{"type":"Feature","id":3,"geometry":{"type":"Point","coordinates":[-71.459148487643247,41.574412224246601]},"properties":{"FID":3,"Id":0,"name":"Wilson Park","address":"Roosevelt Ave","City":" North Kingstown","Field":0}},{"type":"Feature","id":4,"geometry":{"type":"Point","coordinates":[-71.42034967392226,41.620956394510003]},"properties":{"FID":4,"Id":0,"name":"Quonset bike path 1","address":"325-399 Marine Rd","City":" North Kingstown","Field":0}},{"type":"Feature","id":5,"geometry":{"type":"Point","coordinates":[-71.412042223048445,41.633252249922329]},"properties":{"FID":5,"Id":0,"name":"Quonset bike path 2","address":"Petee Ave","City":" North Kingstown","Field":0}},{"type":"Feature","id":6,"geometry":{"type":"Point","coordinates":[-71.469542724067196,41.998636510785616]},"properties":{"FID":6,"Id":0,"name":"Path to Better Health stn 2","address":"1026 Park E Dr","City":"Woonsocket","Field":0}},{"type":"Feature","id":7,"geometry":{"type":"Point","coordinates":[-71.466000149740992,42.001038204098244]},"properties":{"FID":7,"Id":0,"name":"Path to Better Health stn 3","address":"2100 Highland Corporate Dr","City":"Cumberland","Field":0}},{"type":"Feature","id":8,"geometry":{"type":"Point","coordinates":[-71.465666062527006,41.996299056308217]},"properties":{"FID":8,"Id":0,"name":"Path to Better Health stn 4","address":"100 Scenic View Dr","City":"Cumberland","Field":0}},{"type":"Feature","id":9,"geometry":{"type":"Point","coordinates":[-71.472915988342208,41.991176829979636]},"properties":{"FID":9,"Id":0,"name":"Path to Better Health stn 5","address":" 100 Highland Corporate Dr","City":"Cumberland","Field":0}},{"type":"Feature","id":10,"geometry":{"type":"Point","coordinates":[-71.475982057495784,41.992913675523383]},"properties":{"FID":10,"Id":0,"name":"Path to Better Health stn 1","address":"1 CVS Dr","City":"Woonsocket","Field":0}},{"type":"Feature","id":11,"geometry":{"type":"Point","coordinates":[-71.469551453198875,41.63511423249421]},"properties":{"FID":11,"Id":0,"name":"River Farm Fitness Station","address":"41 Franklin Rd","City":"East Greenwich","Field":0}},{"type":"Feature","id":12,"geometry":{"type":"Point","coordinates":[-71.31123785646804,41.482061942869635]},"properties":{"FID":12,"Id":0,"name":"Aquidneck farm/the Hut","address":"300 Spring St","City":" Newport","Field":0}},{"type":"Feature","id":13,"geometry":{"type":"Point","coordinates":[-71.401006740218179,41.888239818269476]},"properties":{"FID":13,"Id":0,"name":"Lincoln Almond Park","address":"67 Crossman St","City":" Central Falls","Field":0}},{"type":"Feature","id":14,"geometry":{"type":"Point","coordinates":[-71.386006859472829,41.898573289644759]},"properties":{"FID":14,"Id":0,"name":"River Island Park","address":"1425 High St","City":" Central Falls","Field":0}},{"type":"Feature","id":15,"geometry":{"type":"Point","coordinates":[-71.554621037861168,41.737132868039637]},"properties":{"FID":15,"Id":0,"name":"Hope Park","address":"22 Clinton Ave","City":"Hope","Field":0}},{"type":"Feature","id":16,"geometry":{"type":"Point","coordinates":[-71.506286809369513,41.827879854333538]},"properties":{"FID":16,"Id":0,"name":" Johnston Memorial Park","address":"1583 Hartford Ave","City":"Johnston","Field":0}},{"type":"Feature","id":17,"geometry":{"type":"Point","coordinates":[-71.417263724305457,41.792898105962408]},"properties":{"FID":17,"Id":0,"name":"Amos Earley Park","address":"27 Cadillac Drive","City":" Providence","Field":0}},{"type":"Feature","id":18,"geometry":{"type":"Point","coordinates":[-71.419143127556694,41.851322228272423]},"properties":{"FID":18,"Id":0,"name":"Ascham Street Park","address":"323 Hawkins Street","City":" Providence","Field":0}},{"type":"Feature","id":19,"geometry":{"type":"Point","coordinates":[-71.404561855737029,41.834038255405815]},"properties":{"FID":19,"Id":0,"name":"Brown Street Park","address":"207 Brown Street","City":" Providence","Field":0}},{"type":"Feature","id":20,"geometry":{"type":"Point","coordinates":[-71.39393105451002,41.789318114140087]},"properties":{"FID":20,"Id":0,"name":"Columbia Park","address":"65 Michigan Avenue","City":" Providence","Field":0}},{"type":"Feature","id":21,"geometry":{"type":"Point","coordinates":[-71.434975400356393,41.809521182952182]},"properties":{"FID":21,"Id":0,"name":"Conlan Junior Memorial Park","address":"225 Waverly Street","City":" Providence","Field":0}},{"type":"Feature","id":22,"geometry":{"type":"Point","coordinates":[-71.428780921256276,41.848074379447503]},"properties":{"FID":22,"Id":0,"name":"Corliss Park","address":"30 Corina Street","City":" Providence","Field":0}},{"type":"Feature","id":23,"geometry":{"type":"Point","coordinates":[-71.431511880948989,41.814894760328826]},"properties":{"FID":23,"Id":0,"name":"Dexter Training Ground","address":"65 Dexter Street","City":" Providence","Field":0}},{"type":"Feature","id":24,"geometry":{"type":"Point","coordinates":[-71.440562232764293,41.823593792539455]},"properties":{"FID":24,"Id":0,"name":"Donigian Park","address":"220 Valley Street","City":" Providence","Field":0}},{"type":"Feature","id":25,"geometry":{"type":"Point","coordinates":[-71.42764273175834,41.838039395494249]},"properties":{"FID":25,"Id":0,"name":"Father Lennon Park","address":"64 Camden Ave","City":" Providence","Field":0}},{"type":"Feature","id":26,"geometry":{"type":"Point","coordinates":[-71.444432036963647,41.853198954236198]},"properties":{"FID":26,"Id":0,"name":"General Street Park","address":"1 Recreation Way","City":" Providence","Field":0}},{"type":"Feature","id":27,"geometry":{"type":"Point","coordinates":[-71.412048487247162,41.802332875444051]},"properties":{"FID":27,"Id":0,"name":"Harriet and Sayles Park","address":"370 Sayles Street","City":" Providence","Field":0}},{"type":"Feature","id":28,"geometry":{"type":"Point","coordinates":[-71.433047399573752,41.851148055429661]},"properties":{"FID":28,"Id":0,"name":"Iola French Park","address":" 221 Veazie St","City":"Providence","Field":0}},{"type":"Feature","id":29,"geometry":{"type":"Point","coordinates":[-71.419482340608639,41.810670078775594]},"properties":{"FID":29,"Id":0,"name":"Jacqueline Clements Park","address":"333 Dudley St","City":"Providence","Field":0}},{"type":"Feature","id":30,"geometry":{"type":"Point","coordinates":[-71.419977741158704,41.785622074565033]},"properties":{"FID":30,"Id":0,"name":"Joseph Williams Field & Park","address":"999 Elmwood Ave","City":"Providence","Field":0}},{"type":"Feature","id":31,"geometry":{"type":"Point","coordinates":[-71.4579132300765,41.810293986507851]},"properties":{"FID":31,"Id":0,"name":"Paul Grande Park","address":"115 Daniel Ave","City":"Providence","Field":0}},{"type":"Feature","id":32,"geometry":{"type":"Point","coordinates":[-71.421912998008835,41.850287666318238]},"properties":{"FID":32,"Id":0,"name":"Prete-Metcalf Field","address":"504 Charles St","City":"Providence","Field":0}},{"type":"Feature","id":33,"geometry":{"type":"Point","coordinates":[-71.463758941952705,41.833484045682766]},"properties":{"FID":33,"Id":0,"name":"Viscolosi Park","address":" 1659 Chalkstone Ave","City":"Providence","Field":0}},{"type":"Feature","id":34,"geometry":{"type":"Point","coordinates":[-71.458148440253225,41.820986449422762]},"properties":{"FID":34,"Id":0,"name":"Woonasquatucket Adventure Park","address":"100 Heath St","City":"Providence","Field":0}}]}