{"type":"FeatureCollection","features":[{"type":"Feature","id":0,"geometry":{"type":"Point","coordinates":[-71.452039661643525,41.787883634348923]},"properties":{"FID":0,"name":"Cooney Park","address":"52-80 Gansett Ave","town":"Cranston"}},{"type":"Feature","id":1,"geometry":{"type":"Point","coordinates":[-71.369140928716817,41.822579803088338]},"properties":{"FID":1,"name":"Onna Moniz-John Park","address":"11 McCausland Ave","town":"East Providence"}},{"type":"Feature","id":2,"geometry":{"type":"Point","coordinates":[-71.297321409587767,41.736622070800763]},"properties":{"FID":2,"name":"Police Cove Park","address":"95 County Road","town":"Barrington"}},{"type":"Feature","id":3,"geometry":{"type":"Point","coordinates":[-71.459251203593496,41.573201249936936]},"properties":{"FID":3,"name":"Wilson Park","address":"11 Roosevelt Ave","town":"North Kingstown"}},{"type":"Feature","id":4,"geometry":{"type":"Point","coordinates":[-71.409680964201698,41.798320017716136]},"properties":{"FID":4,"name":"Richardson Park","address":"64 Richardson Street","town":"Providence"}},{"type":"Feature","id":5,"geometry":{"type":"Point","coordinates":[-71.419745557964916,41.841025257305709]},"properties":{"FID":5,"name":"Chad Brown Playground","address":"279 Chad Brown Street","town":"Providence"}},{"type":"Feature","id":6,"geometry":{"type":"Point","coordinates":[-71.450673883615764,41.832556252670464]},"properties":{"FID":6,"name":"George West Water Park","address":"1276 Chalkstone Ave","town":"Providence"}},{"type":"Feature","id":7,"geometry":{"type":"Point","coordinates":[-71.392339740569426,41.820074822187742]},"properties":{"FID":7,"name":"Fox Point Splash Pad","address":"505 Wickenden Street","town":"Providence"}},{"type":"Feature","id":8,"geometry":{"type":"Point","coordinates":[-71.381576870950639,41.811446268815686]},"properties":{"FID":8,"name":"Pierce Memorial Field","address":"222 Mercer St","town":"East Providence"}},{"type":"Feature","id":9,"geometry":{"type":"Point","coordinates":[-71.418015521760069,41.794116830618563]},"properties":{"FID":9,"name":"Miguel Luna Park Splash Pad","address":"110 Sackett St","town":"Providence"}},{"type":"Feature","id":10,"geometry":{"type":"Point","coordinates":[-71.44312035465434,41.841921884689022]},"properties":{"FID":10,"name":"Fargnoli Park Splash Pad","address":"945 Smith St","town":"Providence"}},{"type":"Feature","id":11,"geometry":{"type":"Point","coordinates":[-71.443922209497686,41.853183039199401]},"properties":{"FID":11,"name":"General Street Water Park","address":"11 West Dr","town":"Providence"}},{"type":"Feature","id":12,"geometry":{"type":"Point","coordinates":[-71.412459079454024,41.802662203302773]},"properties":{"FID":12,"name":"Harriet and Sayles Park","address":"375 Sayles St","town":"Providence"}},{"type":"Feature","id":13,"geometry":{"type":"Point","coordinates":[-71.429295597788368,41.804840316235691]},"properties":{"FID":13,"name":"Bucklin Park","address":"425 Dexter St","town":"Providence"}},{"type":"Feature","id":14,"geometry":{"type":"Point","coordinates":[-71.446173025845752,41.820994332466263]},"properties":{"FID":14,"name":"Joslin Park","address":"40 Florence St","town":"Providence"}},{"type":"Feature","id":15,"geometry":{"type":"Point","coordinates":[-71.403268455391952,41.842140084262034]},"properties":{"FID":15,"name":"Billy Taylor Water Park","address":"140 Camps St","town":"Providence"}},{"type":"Feature","id":16,"geometry":{"type":"Point","coordinates":[-71.39151074405909,41.869442306432944]},"properties":{"FID":16,"name":"Payne Park","address":"225 West Ave","town":"Pawtucket"}},{"type":"Feature","id":17,"geometry":{"type":"Point","coordinates":[-71.548204962529283,41.8775084932197]},"properties":{"FID":17,"name":"Deerfield Park","address":"100 Lisa Ann Cir","town":"Smithfield"}},{"type":"Feature","id":18,"geometry":{"type":"Point","coordinates":[-71.510130075812469,42.009893110744919]},"properties":{"FID":18,"name":"WWII Veterans Memorial Park","address":"209 E School Street","town":"Woonsocket"}},{"type":"Feature","id":19,"geometry":{"type":"Point","coordinates":[-71.395466996615241,41.893024626042141]},"properties":{"FID":19,"name":"Veterans Memorial Park","address":"416 Hunt St","town":"Central Falls"}},{"type":"Feature","id":20,"geometry":{"type":"Point","coordinates":[-71.431208252611441,41.822453873446392]},"properties":{"FID":20,"name":"Pastore Water Park","address":"90 Knight St","town":"Providence"}},{"type":"Feature","id":21,"geometry":{"type":"Point","coordinates":[-71.462758431570634,41.811263062500053]},"properties":{"FID":21,"name":"Neutaconkanut Recreation Center Water Park","address":"675 Plainfield St","town":"Providence"}},{"type":"Feature","id":22,"geometry":{"type":"Point","coordinates":[-71.444477806030079,41.811609999863194]},"properties":{"FID":22,"name":"James Ahern Park Splash Pad","address":"1 Wallace St","town":"Providence"}}]}