{"type":"FeatureCollection","features":[{"type":"Feature","id":0,"geometry":{"type":"Point","coordinates":[-71.28613977486738,41.687959973871465]},"properties":{"FID":0,"name":"Bristol Recreation Center","address":"\u00A0101 Asylum Rd","city":"Bristol"}},{"type":"Feature","id":1,"geometry":{"type":"Point","coordinates":[-71.396399304267675,41.892297472516297]},"properties":{"FID":1,"name":"Wilfrid Manor","address":"\u00A0466 Hunt St","city":"Central Falls"}},{"type":"Feature","id":2,"geometry":{"type":"Point","coordinates":[-71.327704632427015,41.748079731316089]},"properties":{"FID":2,"name":"Public Safety Building","address":"\u00A0100 Federal Rd","city":"Barrington"}},{"type":"Feature","id":3,"geometry":{"type":"Point","coordinates":[-71.390282007219923,41.886686755600508]},"properties":{"FID":3,"name":"Forand Manor","address":"\u00A030 Washington St","city":"Central Falls"}},{"type":"Feature","id":4,"geometry":{"type":"Point","coordinates":[-71.65850035969072,41.368933798784518]},"properties":{"FID":4,"name":"Charlestown Community Center","address":"\u00A0100 Park Ln","city":"Charlestown"}},{"type":"Feature","id":5,"geometry":{"type":"Point","coordinates":[-71.564091425527309,41.685179995684393]},"properties":{"FID":5,"name":"Coventry Police Department","address":"\u00A060 Wood Street","city":"Coventry"}},{"type":"Feature","id":6,"geometry":{"type":"Point","coordinates":[-71.647328520949912,41.415180102335164]},"properties":{"FID":6,"name":"Charlestown Town Hall","address":"\u00A04540 South County Trail","city":"Charlestown"}},{"type":"Feature","id":7,"geometry":{"type":"Point","coordinates":[-71.666371089688553,41.374930246461588]},"properties":{"FID":7,"name":"Police Community Room","address":"\u00A04901 Old Post Rd","city":"Charlestown"}},{"type":"Feature","id":8,"geometry":{"type":"Point","coordinates":[-71.452261627197387,41.660702571259378]},"properties":{"FID":8,"name":"East Greenwich Community Center","address":"121 Peirce St","city":"East Greenwich"}},{"type":"Feature","id":9,"geometry":{"type":"Point","coordinates":[-71.401223867755988,41.929871923502716]},"properties":{"FID":9,"name":"Cumberland Public Safety Complex","address":"\u00A01379 Diamond Hill Road","city":"Cumberland"}},{"type":"Feature","id":10,"geometry":{"type":"Point","coordinates":[-71.458599637756137,41.657751384775679]},"properties":{"FID":10,"name":"East Greenwich Police Community Room","address":"\u00A0176 First Ave","city":"East Greenwich"}},{"type":"Feature","id":11,"geometry":{"type":"Point","coordinates":[-71.564323794156351,41.68529111804412]},"properties":{"FID":11,"name":"Coventry Department of Human Resource and Senior Center","address":"\u00A050 Wood St","city":"Coventry"}},{"type":"Feature","id":12,"geometry":{"type":"Point","coordinates":[-71.357342382336583,41.817281453483339]},"properties":{"FID":12,"name":"East Providence Senior Center","address":"610 Waterman Ave","city":"East Providence"}},{"type":"Feature","id":13,"geometry":{"type":"Point","coordinates":[-71.661351942022193,41.911646124166914]},"properties":{"FID":13,"name":"Glocester Town Hall","address":"\u00A01145 Putnam Pike","city":"Glocester"}},{"type":"Feature","id":14,"geometry":{"type":"Point","coordinates":[-71.672772756410865,41.914734722420995]},"properties":{"FID":14,"name":"Glocester Senior Center","address":"\u00A01210 Putnam Pike","city":"Glocester"}},{"type":"Feature","id":15,"geometry":{"type":"Point","coordinates":[-71.688119611279618,41.639953775408252]},"properties":{"FID":15,"name":"West Greenwich Town Hall","address":"\u00A0280 Victory Highway","city":"West Greenwich"}},{"type":"Feature","id":16,"geometry":{"type":"Point","coordinates":[-71.768879374115045,41.45950559919838]},"properties":{"FID":16,"name":"Hopkinton Police Station","address":"\u00A0406 Woodville Rd","city":"Hopkinton"}},{"type":"Feature","id":17,"geometry":{"type":"Point","coordinates":[-71.364153911526671,41.506684986014477]},"properties":{"FID":17,"name":"Jamestown Police Station","address":"\u00A0250 Conanicus Ave","city":"Jamestown"}},{"type":"Feature","id":18,"geometry":{"type":"Point","coordinates":[-71.373958724752526,41.49591940902539]},"properties":{"FID":18,"name":"Jamestown Town Hall","address":"\u00A093 Narraganestt Ave","city":"Jamestown"}},{"type":"Feature","id":19,"geometry":{"type":"Point","coordinates":[-71.494268767851665,41.823880194257292]},"properties":{"FID":19,"name":"Johnston Senior Center","address":"\u00A01291 Hartford Ave","city":"Johnston"}},{"type":"Feature","id":20,"geometry":{"type":"Point","coordinates":[-71.502426431487706,41.830569072885453]},"properties":{"FID":20,"name":"Johnston Public Library","address":"\u00A01 Memorial Ave","city":"Johnston"}},{"type":"Feature","id":21,"geometry":{"type":"Point","coordinates":[-71.172717726627795,41.509819424443442]},"properties":{"FID":21,"name":"Little Compton Community Center","address":"34 Commons","city":"Little Compton"}},{"type":"Feature","id":22,"geometry":{"type":"Point","coordinates":[-71.472839649702635,41.907784136857089]},"properties":{"FID":22,"name":"Lincoln Senior Center","address":"150 Jenckes Hill Rd","city":"Lincoln"}},{"type":"Feature","id":23,"geometry":{"type":"Point","coordinates":[-71.442688277966198,41.930293266856935]},"properties":{"FID":23,"name":"Lincoln Senior Center second","address":"100 Old River Rd","city":"Lincoln"}},{"type":"Feature","id":24,"geometry":{"type":"Point","coordinates":[-71.162095786725217,41.521272594375219]},"properties":{"FID":24,"name":"Little Compton Wellness Center","address":"115 East Main Rd","city":"Little Compton"}},{"type":"Feature","id":25,"geometry":{"type":"Point","coordinates":[-71.315729468642033,41.486913878203929]},"properties":{"FID":25,"name":"Seamen's Church Institute","address":"18 Market Sq","city":"Newport"}},{"type":"Feature","id":26,"geometry":{"type":"Point","coordinates":[-71.272751843270299,41.509305485511348]},"properties":{"FID":26,"name":"Middletown Senior Center","address":"\u00A0650 Green End Ave","city":"Middletown"}},{"type":"Feature","id":27,"geometry":{"type":"Point","coordinates":[-71.444904481685541,41.565862036094288]},"properties":{"FID":27,"name":"Senior Center","address":"\u00A044 Beach St","city":"North Kingstown"}},{"type":"Feature","id":28,"geometry":{"type":"Point","coordinates":[-71.546467407169729,41.953440349861985]},"properties":{"FID":28,"name":"North Smithfield Middle School","address":"\u00A01850 Providence Pike","city":"North Smithfield"}},{"type":"Feature","id":29,"geometry":{"type":"Point","coordinates":[-71.473656281590266,41.854572179111457]},"properties":{"FID":29,"name":"Senior Center","address":"\u00A02 Atlantic Blvd","city":"North Providence"}},{"type":"Feature","id":30,"geometry":{"type":"Point","coordinates":[-71.382147602121037,41.878728636608372]},"properties":{"FID":30,"name":"Pawtucket Police Department Headquarters Lobby","address":"121 Roosevelt Ave","city":"Pawtucket"}},{"type":"Feature","id":31,"geometry":{"type":"Point","coordinates":[-71.383725059201069,41.877368174061118]},"properties":{"FID":31,"name":"Blackstone Valley Visitors Center","address":"175 Main Street","city":"Pawtucket"}},{"type":"Feature","id":32,"geometry":{"type":"Point","coordinates":[-71.388480779686404,41.876721997316722]},"properties":{"FID":32,"name":"Leon Mathieu Senior Center","address":"\u00A0420 Main St","city":"Pawtucket"}},{"type":"Feature","id":33,"geometry":{"type":"Point","coordinates":[-71.39931318283719,41.858352576745688]},"properties":{"FID":33,"name":"Pawtucket Shelter","address":"1139 Main Street","city":"Pawtucket"}},{"type":"Feature","id":34,"geometry":{"type":"Point","coordinates":[-71.459528773231298,41.860642801232061]},"properties":{"FID":34,"name":"North Providence High School","address":"\u00A01828 Mineral Spring Ave","city":"North Providence"}},{"type":"Feature","id":35,"geometry":{"type":"Point","coordinates":[-71.257433666641916,41.618171168882093]},"properties":{"FID":35,"name":"Portsmouth Multi-Purpose Senior Center","address":"\u00A0110 Bristol Ferry Rd","city":"Portsmouth"}},{"type":"Feature","id":36,"geometry":{"type":"Point","coordinates":[-71.408748015337949,41.807144307392406]},"properties":{"FID":36,"name":"Emmanuel House","address":"239 Public St","city":"Providence"}},{"type":"Feature","id":37,"geometry":{"type":"Point","coordinates":[-71.432839786553558,41.822262459912771]},"properties":{"FID":37,"name":"Federal Hill House","address":"9 Courtland Street","city":"Providence"}},{"type":"Feature","id":38,"geometry":{"type":"Point","coordinates":[-71.43614666951926,41.806810735448813]},"properties":{"FID":38,"name":"Providence Rescue Mission","address":"627 Cranston St","city":"Providence"}},{"type":"Feature","id":39,"geometry":{"type":"Point","coordinates":[-71.699004523490629,41.514883210059253]},"properties":{"FID":39,"name":"Community Center","address":"\u00A01168 Main St","city":"Richmond"}},{"type":"Feature","id":40,"geometry":{"type":"Point","coordinates":[-71.419820559147581,41.847399987284746]},"properties":{"FID":40,"name":"The DaVinci Center","address":"470 Charles St","city":"Providence"}},{"type":"Feature","id":41,"geometry":{"type":"Point","coordinates":[-71.665370148381228,41.818045781676517]},"properties":{"FID":41,"name":"Chopmist Hill Senior Center","address":"\u00A01315 Chopmist Hill Rd","city":"Scituate"}},{"type":"Feature","id":42,"geometry":{"type":"Point","coordinates":[-71.485058570018481,41.453006971542372]},"properties":{"FID":42,"name":"Senior Center","address":"\u00A025 St Dominic Rd","city":"South Kingstown"}},{"type":"Feature","id":43,"geometry":{"type":"Point","coordinates":[-71.552992699067133,41.882641344707416]},"properties":{"FID":43,"name":"Smithfield Senior Center","address":"\u00A01 William J Hawkins Trail","city":"Smithfield"}},{"type":"Feature","id":44,"geometry":{"type":"Point","coordinates":[-71.416993183951263,41.816952677262059]},"properties":{"FID":44,"name":"Crossroads","address":"160 Broad Street","city":"Providence"}},{"type":"Feature","id":45,"geometry":{"type":"Point","coordinates":[-71.494980264410856,41.449398271118817]},"properties":{"FID":45,"name":"The Neighborhood Guild","address":"\u00A0325 Columbia St","city":"South Kingstown"}},{"type":"Feature","id":46,"geometry":{"type":"Point","coordinates":[-71.187686298193427,41.670004978879284]},"properties":{"FID":46,"name":"Tiverton Senior Center","address":"\u00A0207 Canonicus St","city":"Tiverton"}},{"type":"Feature","id":47,"geometry":{"type":"Point","coordinates":[-71.281203111568246,41.729019075405262]},"properties":{"FID":47,"name":"Warren Police Station","address":"\u00A01 Joyce Street","city":"Warren"}},{"type":"Feature","id":48,"geometry":{"type":"Point","coordinates":[-71.688030966478266,41.63994430844626]},"properties":{"FID":48,"name":"West Greenwich Town Hall","address":"\u00A0280 Victory Highway","city":"West Greenwich"}},{"type":"Feature","id":49,"geometry":{"type":"Point","coordinates":[-71.518892340233251,41.707232792086366]},"properties":{"FID":49,"name":"West Warwick Police Youth Center","address":"40 Factory St","city":"West Warwick"}},{"type":"Feature","id":50,"geometry":{"type":"Point","coordinates":[-71.823602748835754,41.382134432590576]},"properties":{"FID":50,"name":"WARM Center","address":"56 Spruce St","city":"Westerly"}},{"type":"Feature","id":51,"geometry":{"type":"Point","coordinates":[-71.407852763550068,41.745803012420545]},"properties":{"FID":51,"name":"Pilgrim Senior Center","address":"\u00A027 Pilgrim Parkway","city":"Warwick"}},{"type":"Feature","id":52,"geometry":{"type":"Point","coordinates":[-71.509866309969055,42.005972724150986]},"properties":{"FID":52,"name":"Woonsocket Police Department Lobby Area","address":"\u00A0242 Clinton St","city":"Woosocket"}},{"type":"Feature","id":53,"geometry":{"type":"Point","coordinates":[-71.505252207444073,42.004894290396969]},"properties":{"FID":53,"name":"Woonsocket Warm Shelter","address":"356 Clinton St","city":"Woonsocket"}},{"type":"Feature","id":54,"geometry":{"type":"Point","coordinates":[-71.511539703033918,42.006718767598471]},"properties":{"FID":54,"name":"Woonsocket Senior Center","address":"\u00A084 Social St","city":"Woonsocket"}},{"type":"Feature","id":55,"geometry":{"type":"Point","coordinates":[-71.387962783245811,41.885869796180771]},"properties":{"FID":55,"name":"ADAMS PUBLIC LIBRARY","address":"205 CENTRAL STREET","city":"CENTRAL FALLS"}},{"type":"Feature","id":56,"geometry":{"type":"Point","coordinates":[-71.358963415956239,41.80366280799489]},"properties":{"FID":56,"name":"ANNE IDE FULLER CREATIVE LEARNING CENTER","address":"260 DOVER AVENUE","city":"EAST PROVIDENCE"}},{"type":"Feature","id":57,"geometry":{"type":"Point","coordinates":[-71.458155183914513,41.69929043869238]},"properties":{"FID":57,"name":"APPONAUG BRANCH","address":"3267 POST ROAD","city":"WARWICK"}},{"type":"Feature","id":58,"geometry":{"type":"Point","coordinates":[-71.448103885691509,41.797466316798385]},"properties":{"FID":58,"name":"ARLINGTON BRANCH","address":"1064 CRANSTON STREET","city":"CRANSTON"}},{"type":"Feature","id":59,"geometry":{"type":"Point","coordinates":[-71.788725159017474,41.424410884368442]},"properties":{"FID":59,"name":"ASHAWAY FREE LIBRARY","address":"15 KNIGHT STREET","city":"HOPKINTON"}},{"type":"Feature","id":60,"geometry":{"type":"Point","coordinates":[-71.437273052821098,41.777062858293469]},"properties":{"FID":60,"name":"AUBURN BRANCH","address":"396 PONTIAC AVENUE","city":"CRANSTON"}},{"type":"Feature","id":61,"geometry":{"type":"Point","coordinates":[-71.307152612125748,41.740502203965214]},"properties":{"FID":61,"name":"BARRINGTON PUBLIC LIBRARY","address":"281 COUNTY ROAD","city":"BARRINGTON"}},{"type":"Feature","id":62,"geometry":{"type":"Point","coordinates":[-71.170832952451931,41.509962517707812]},"properties":{"FID":62,"name":"BROWNELL LIBRARY, HOME OF LITTLE COMPTON","address":"44 COMMONS","city":"LITTLE COMPTON"}},{"type":"Feature","id":63,"geometry":{"type":"Point","coordinates":[-71.661527937766252,41.466830223175805]},"properties":{"FID":63,"name":"CLARK MEMORIAL LIBRARY","address":"7 PINEHURST DRIVE","city":"RICHMOND"}},{"type":"Feature","id":64,"geometry":{"type":"Point","coordinates":[-71.381461459938961,41.723885170231334]},"properties":{"FID":64,"name":"CONIMICUT BRANCH","address":"55 BEACH AVENUE","city":"WARWICK"}},{"type":"Feature","id":65,"geometry":{"type":"Point","coordinates":[-71.592930916296041,41.700196593029197]},"properties":{"FID":65,"name":"COVENTRY PUBLIC LIBRARY","address":"1672 FLAT RIVER ROAD","city":"COVENTRY"}},{"type":"Feature","id":66,"geometry":{"type":"Point","coordinates":[-71.45697959193987,41.75440954523669]},"properties":{"FID":66,"name":"CRANSTON PUBLIC LIBRARY","address":"140 SOCKANOSSET CROSS ROAD","city":"CRANSTON"}},{"type":"Feature","id":67,"geometry":{"type":"Point","coordinates":[-71.640885397240567,41.382618469902873]},"properties":{"FID":67,"name":"CROSS' MILLS PUBLIC LIBRARY","address":"4417 OLD POST ROAD","city":"CHARLESTOWN"}},{"type":"Feature","id":68,"geometry":{"type":"Point","coordinates":[-71.405313857942929,41.935305972673689]},"properties":{"FID":68,"name":"CUMBERLAND PUBLIC LIBRARY","address":"1464 DIAMOND HILL ROAD","city":"CUMBERLAND"}},{"type":"Feature","id":69,"geometry":{"type":"Point","coordinates":[-71.477401823337075,41.61670706810115]},"properties":{"FID":69,"name":"DAVISVILLE FREE LIBRARY","address":"481 DAVISVILLE ROAD","city":"NORTH KINGSTOWN"}},{"type":"Feature","id":70,"geometry":{"type":"Point","coordinates":[-71.450867525713647,41.661383781147478]},"properties":{"FID":70,"name":"EAST GREENWICH FREE LIBRARY","address":"82 PEIRCE STREET","city":"EAST GREENWICH"}},{"type":"Feature","id":71,"geometry":{"type":"Point","coordinates":[-71.375259622371402,41.818475040672297]},"properties":{"FID":71,"name":"EAST PROVIDENCE PUBLIC LIBRARY","address":"41 GROVE AVENUE","city":"EAST PROVIDENCE"}},{"type":"Feature","id":72,"geometry":{"type":"Point","coordinates":[-71.504506098415021,41.874210778795451]},"properties":{"FID":72,"name":"EAST SMITHFIELD PUBLIC LIBRARY","address":"50 ESMOND STREET","city":"SMITHFIELD"}},{"type":"Feature","id":73,"geometry":{"type":"Point","coordinates":[-71.587029955958215,41.580356222445779]},"properties":{"FID":73,"name":"EXETER PUBLIC LIBRARY","address":"773 TEN ROD ROAD","city":"EXETER"}},{"type":"Feature","id":74,"geometry":{"type":"Point","coordinates":[-71.720457501252909,41.784593059193178]},"properties":{"FID":74,"name":"FOSTER PUBLIC LIBRARY","address":"184 HOWARD HILL ROAD","city":"FOSTER"}},{"type":"Feature","id":75,"geometry":{"type":"Point","coordinates":[-71.392338573114472,41.820692080337487]},"properties":{"FID":75,"name":"FOX POINT BRANCH","address":"90 IVES STREET","city":"PROVIDENCE"}},{"type":"Feature","id":76,"geometry":{"type":"Point","coordinates":[-71.281913633039693,41.728471603692732]},"properties":{"FID":76,"name":"GEORGE HAIL FREE LIBRARY","address":"530 MAIN STREET","city":"WARREN"}},{"type":"Feature","id":77,"geometry":{"type":"Point","coordinates":[-71.668492652520854,41.911801731891117]},"properties":{"FID":77,"name":"GLOCESTER MANTON FREE PUBLIC LIBRARY","address":"1137 PUTNAM PIKE","city":"GLOCESTER"}},{"type":"Feature","id":78,"geometry":{"type":"Point","coordinates":[-71.749494002201317,41.688087021824245]},"properties":{"FID":78,"name":"GREENE PUBLIC LIBRARY","address":"179 HOPKINS HOLLOW ROAD","city":"GREENE"}},{"type":"Feature","id":79,"geometry":{"type":"Point","coordinates":[-71.549252452036512,41.871171474069058]},"properties":{"FID":79,"name":"GREENVILLE PUBLIC LIBRARY","address":"573 PUTNAM PIKE","city":"SMITHFIELD"}},{"type":"Feature","id":80,"geometry":{"type":"Point","coordinates":[-71.595937277514707,41.888574213671852]},"properties":{"FID":80,"name":"HARMONY LIBRARY","address":"195 PUTNAM PIKE","city":"GLOCESTER"}},{"type":"Feature","id":81,"geometry":{"type":"Point","coordinates":[-71.563887015026296,41.736434705010552]},"properties":{"FID":81,"name":"HOPE LIBRARY","address":"374 NORTH ROAD","city":"SCITUATE"}},{"type":"Feature","id":82,"geometry":{"type":"Point","coordinates":[-71.559698937119364,41.17384743205487]},"properties":{"FID":82,"name":"ISLAND FREE LIBRARY","address":"9 DODGE STREET","city":"NEW SHOREHAM"}},{"type":"Feature","id":83,"geometry":{"type":"Point","coordinates":[-71.37408247990453,41.497599670046]},"properties":{"FID":83,"name":"JAMESTOWN PHILOMENIAN LIBRARY","address":"26 NORTH ROAD","city":"JAMESTOWN"}},{"type":"Feature","id":84,"geometry":{"type":"Point","coordinates":[-71.674631319659284,41.965035289675157]},"properties":{"FID":84,"name":"JESSE M. SMITH MEMORIAL LIBRARY","address":"100 TINKHAM LANE","city":"BURRILLVILLE"}},{"type":"Feature","id":85,"geometry":{"type":"Point","coordinates":[-71.525217349280169,41.48066534086157]},"properties":{"FID":85,"name":"KINGSTON FREE LIBRARY","address":"2605 KINGSTOWN ROAD","city":"KINGSTON"}},{"type":"Feature","id":86,"geometry":{"type":"Point","coordinates":[-71.425996302531829,41.805044246460028]},"properties":{"FID":86,"name":"KNIGHT MEMORIAL LIBRARY","address":"275 ELMWOOD AVENUE","city":"PROVIDENCE"}},{"type":"Feature","id":87,"geometry":{"type":"Point","coordinates":[-71.467078447872353,41.778764715993042]},"properties":{"FID":87,"name":"KNIGHTSVILLE BRANCH","address":"1847 CRANSTON STREET","city":"CRANSTON"}},{"type":"Feature","id":88,"geometry":{"type":"Point","coordinates":[-71.717998505096418,41.508877461221694]},"properties":{"FID":88,"name":"LANGWORTHY PUBLIC LIBRARY","address":"24 SPRING STREET","city":"HOPKINTON"}},{"type":"Feature","id":89,"geometry":{"type":"Point","coordinates":[-71.452858623574528,41.938018452870608]},"properties":{"FID":89,"name":"LINCOLN PUBLIC LIBRARY","address":"145 OLD RIVER ROAD","city":"LINCOLN"}},{"type":"Feature","id":90,"geometry":{"type":"Point","coordinates":[-71.688238603426115,41.640487007885447]},"properties":{"FID":90,"name":"LOUTTIT LIBRARY","address":"274 VICTORY HIGHWAY","city":"WEST GREENWICH"}},{"type":"Feature","id":91,"geometry":{"type":"Point","coordinates":[-71.502405755534085,41.830565853537443]},"properties":{"FID":91,"name":"MARIAN J. MOHR MEMORIAL LIBRARY","address":"1 MEMORIAL AVENUE","city":"JOHNSTON"}},{"type":"Feature","id":92,"geometry":{"type":"Point","coordinates":[-71.459784584109499,41.431435618819073]},"properties":{"FID":92,"name":"MAURY LOONTJENS MEMORIAL LIBRARY (NARRAGANSETT)","address":"35 KINGSTOWN ROAD","city":"NARRAGANSETT"}},{"type":"Feature","id":93,"geometry":{"type":"Point","coordinates":[-71.458867859650212,41.861448605092889]},"properties":{"FID":93,"name":"MAYOR SALVATORE MANCINI UNION FREE LIBRARY","address":"1810 MINERAL SPRING AVENUE","city":"NORTH PROVIDENCE"}},{"type":"Feature","id":94,"geometry":{"type":"Point","coordinates":[-71.29954938834193,41.521574206862724]},"properties":{"FID":94,"name":"MIDDLETOWN PUBLIC LIBRARY","address":"700 WEST MAIN ROAD","city":"MIDDLETOWN"}},{"type":"Feature","id":95,"geometry":{"type":"Point","coordinates":[-71.444073999309452,41.833416688173372]},"properties":{"FID":95,"name":"MOUNT PLEASANT BRANCH","address":"315 ACADEMY AVENUE","city":"PROVIDENCE"}},{"type":"Feature","id":96,"geometry":{"type":"Point","coordinates":[-71.312343853083476,41.482441613778818]},"properties":{"FID":96,"name":"NEWPORT PUBLIC LIBRARY","address":"300 SPRING STREET","city":"NEWPORT"}},{"type":"Feature","id":97,"geometry":{"type":"Point","coordinates":[-71.455971312085182,41.570147723466135]},"properties":{"FID":97,"name":"NORTH KINGSTOWN FREE LIBRARY","address":"100 BOONE STREET","city":"NORTH KINGSTOWN"}},{"type":"Feature","id":98,"geometry":{"type":"Point","coordinates":[-71.587101036053411,41.833848826509808]},"properties":{"FID":98,"name":"NORTH SCITUATE PUBLIC LIBRARY","address":"606 WEST GREENVILLE ROAD","city":"SCITUATE"}},{"type":"Feature","id":99,"geometry":{"type":"Point","coordinates":[-71.580696163960255,41.999623181949985]},"properties":{"FID":99,"name":"NORTH SMITHFIELD PUBLIC LIBRARY","address":"20 MAIN STREET","city":"NORTH SMITHFIELD"}},{"type":"Feature","id":100,"geometry":{"type":"Point","coordinates":[-71.430469267656363,41.75429753045308]},"properties":{"FID":100,"name":"NORWOOD BRANCH","address":"328 PAWTUXET AVENUE","city":"WARWICK"}},{"type":"Feature","id":101,"geometry":{"type":"Point","coordinates":[-71.486454900141666,41.749691392264701]},"properties":{"FID":101,"name":"OAK LAWN BRANCH","address":"230 WILBUR AVENUE","city":"CRANSTON"}},{"type":"Feature","id":102,"geometry":{"type":"Point","coordinates":[-71.442950704555699,41.816594148223132]},"properties":{"FID":102,"name":"OLNEYVILLE BRANCH","address":"1 OLNEYVILLE SQUARE","city":"PROVIDENCE"}},{"type":"Feature","id":103,"geometry":{"type":"Point","coordinates":[-71.704796859189443,41.957226552990804]},"properties":{"FID":103,"name":"PASCOAG FREE PUBLIC LIBRARY","address":"57 CHURCH STREET","city":"PASCOAG"}},{"type":"Feature","id":104,"geometry":{"type":"Point","coordinates":[-71.3845675090013,41.878817345764865]},"properties":{"FID":104,"name":"PAWTUCKET PUBLIC LIBRARY","address":"13 SUMMER STREET","city":"PAWTUCKET"}},{"type":"Feature","id":105,"geometry":{"type":"Point","coordinates":[-71.474933094832807,41.729752008286439]},"properties":{"FID":105,"name":"PONTIAC FREE LIBRARY","address":"101 GREENWICH AVENUE","city":"WARWICK"}},{"type":"Feature","id":106,"geometry":{"type":"Point","coordinates":[-71.248740236595978,41.602128815353346]},"properties":{"FID":106,"name":"PORTSMOUTH FREE PUBLIC LIBRARY","address":"2658 EAST MAIN ROAD","city":"PORTSMOUTH"}},{"type":"Feature","id":107,"geometry":{"type":"Point","coordinates":[-71.416831795106148,41.821900528427086]},"properties":{"FID":107,"name":"PROVIDENCE PUBLIC LIBRARY","address":"150 EMPIRE STREET","city":"PROVIDENCE"}},{"type":"Feature","id":108,"geometry":{"type":"Point","coordinates":[-71.361491384760242,41.765486452246861]},"properties":{"FID":108,"name":"RIVERSIDE BRANCH","address":"475 BULLOCKS POINT AVENUE","city":"EAST PROVIDENCE"}},{"type":"Feature","id":109,"geometry":{"type":"Point","coordinates":[-71.548901053555255,41.397968933355124]},"properties":{"FID":109,"name":"ROBERT BEVERLY HALE LIBRARY","address":"2601 COMMODORE O H PERRY HIGHWAY","city":"SOUTH KINGSTOWN"}},{"type":"Feature","id":110,"geometry":{"type":"Point","coordinates":[-71.396693466373009,41.846242059599007]},"properties":{"FID":110,"name":"ROCHAMBEAU BRANCH","address":"708 HOPE STREET","city":"PROVIDENCE"}},{"type":"Feature","id":111,"geometry":{"type":"Point","coordinates":[-71.277087006577702,41.671268011493829]},"properties":{"FID":111,"name":"ROGERS FREE LIBRARY","address":"525 HOPE STREET","city":"BRISTOL"}},{"type":"Feature","id":112,"geometry":{"type":"Point","coordinates":[-71.422208027028631,41.83536738003999]},"properties":{"FID":112,"name":"SMITH HILL BRANCH","address":"31 CANDACE STREET","city":"PROVIDENCE"}},{"type":"Feature","id":113,"geometry":{"type":"Point","coordinates":[-71.495090223508228,41.451021419861782]},"properties":{"FID":113,"name":"SOUTH KINGSTOWN PUBLIC LIBRARY","address":"1057 KINGSTOWN ROAD","city":"SOUTH KINGSTOWN"}},{"type":"Feature","id":114,"geometry":{"type":"Point","coordinates":[-71.413706158279027,41.801980781978763]},"properties":{"FID":114,"name":"SOUTH PROVIDENCE BRANCH","address":"441 PRAIRIE AVENUE","city":"PROVIDENCE"}},{"type":"Feature","id":115,"geometry":{"type":"Point","coordinates":[-71.148623898292755,41.624977019189984]},"properties":{"FID":115,"name":"TIVERTON PUBLIC LIBRARY","address":"34 ROOSEVELT AVENUE","city":"TIVERTON"}},{"type":"Feature","id":116,"geometry":{"type":"Point","coordinates":[-71.753029873567584,41.736389555830634]},"properties":{"FID":116,"name":"TYLER FREE LIBRARY","address":"81A MOOSUP VALLEY ROAD","city":"FOSTER"}},{"type":"Feature","id":117,"geometry":{"type":"Point","coordinates":[-71.187964944220894,41.573036697795288]},"properties":{"FID":117,"name":"UNION BRANCH LIBRARY","address":"3832 MAIN ROAD","city":"TIVERTON"}},{"type":"Feature","id":118,"geometry":{"type":"Point","coordinates":[-71.434421942941441,41.851505346676454]},"properties":{"FID":118,"name":"WANSKUCK BRANCH","address":"233 VEAZIE STREET","city":"PROVIDENCE"}},{"type":"Feature","id":119,"geometry":{"type":"Point","coordinates":[-71.402637389537645,41.710737605362993]},"properties":{"FID":119,"name":"WARWICK PUBLIC LIBRARY","address":"600 SANDY LANE","city":"WARWICK"}},{"type":"Feature","id":120,"geometry":{"type":"Point","coordinates":[-71.405502604763868,41.791000803982186]},"properties":{"FID":120,"name":"WASHINGTON PARK BRANCH","address":"1316 BROAD STREET","city":"PROVIDENCE"}},{"type":"Feature","id":121,"geometry":{"type":"Point","coordinates":[-71.52376269117093,41.712028730687415]},"properties":{"FID":121,"name":"WEST WARWICK PUBLIC LIBRARY","address":"1043 MAIN STREET","city":"WEST WARWICK"}},{"type":"Feature","id":122,"geometry":{"type":"Point","coordinates":[-71.829668150828908,41.377399482061172]},"properties":{"FID":122,"name":"WESTERLY PUBLIC LIBRARY","address":"44 BROAD STREET","city":"WESTERLY"}},{"type":"Feature","id":123,"geometry":{"type":"Point","coordinates":[-71.423776635533343,41.507720624380198]},"properties":{"FID":123,"name":"WILLETT FREE LIBRARY","address":"45 FERRY ROAD","city":"NORTH KINGSTOWN"}},{"type":"Feature","id":124,"geometry":{"type":"Point","coordinates":[-71.399762777933503,41.775486051321501]},"properties":{"FID":124,"name":"WILLIAM HALL LIBRARY","address":"1825 BROAD STREET","city":"CRANSTON"}},{"type":"Feature","id":125,"geometry":{"type":"Point","coordinates":[-71.508285975568654,42.00547185409382]},"properties":{"FID":125,"name":"WOONSOCKET HARRIS PUBLIC LIBRARY","address":"303 CLINTON STREET","city":"WOONSOCKET"}}]}